[
    { "id": "ent_leclerc", "name": "Leclerc", "type": "Distribution", "description": "Chaîne de supermarchés", "tax_id": "tax_vat", "locations": [{ "city": "Paris", "lat": 48.86, "lon": 2.35 }, { "city": "Marseille", "lat": 43.29, "lon": 5.37 }] },
    { "id": "ent_carrefour", "name": "Carrefour", "type": "Distribution", "description": "Chaîne de supermarchés", "tax_id": "tax_vat", "locations": [{ "city": "Lyon", "lat": 45.76, "lon": 4.83 }, { "city": "Toulouse", "lat": 43.60, "lon": 1.44 }] },
    { "id": "ent_intermarche", "name": "Intermarché", "type": "Distribution", "description": "Chaîne de supermarchés", "tax_id": "tax_vat", "locations": [{ "city": "Nantes", "lat": 47.21, "lon": -1.55 }, { "city": "Rennes", "lat": 48.11, "lon": -1.67 }] },
    { "id": "ent_super_u", "name": "Super U", "type": "Distribution", "description": "Chaîne de supermarchés", "tax_id": "tax_vat", "locations": [{ "city": "Angers", "lat": 47.47, "lon": -0.55 }] },
    { "id": "ent_auchan", "name": "Auchan", "type": "Distribution", "description": "Chaîne de supermarchés", "tax_id": "tax_vat", "locations": [{ "city": "Villeneuve-d'Ascq", "lat": 50.61, "lon": 3.13 }] },
    { "id": "ent_lidl", "name": "Lidl", "type": "Distribution", "description": "Chaîne de supermarchés", "tax_id": "tax_vat", "locations": [{ "city": "Paris", "lat": 48.87, "lon": 2.37 }] },
    { "id": "ent_aldi", "name": "Aldi", "type": "Distribution", "description": "Chaîne de supermarchés", "tax_id": "tax_vat", "locations": [{ "city": "Marseille", "lat": 43.32, "lon": 5.41 }] },
    { "id": "ent_monoprix", "name": "Monoprix", "type": "Distribution", "description": "Chaîne de supermarchés", "tax_id": "tax_vat", "locations": [{"city": "Lyon", "lat": 45.76, "lon": 4.83}] },
    { "id": "ent_proxy_cocci_market", "name": "Proxy/Cocci-MARKET", "type": "Distribution", "description": "Réseaux de magasins de proximité", "tax_id": "tax_vat", "locations": [{"city": "Toulouse", "lat": 43.60, "lon": 1.44}] },
    { "id": "ent_total", "name": "TotalEnergies", "type": "Énergie/Stations-service", "description": "Entreprise pétrolière et stations-service", "tax_id": "tax_vat", "locations": [{ "city": "Le Havre", "lat": 49.49, "lon": 0.10 }, { "city": "Rouen", "lat": 49.44, "lon": 1.09 }] },
    { "id": "ent_starbucks", "name": "Starbucks", "type": "Restauration", "description": "Chaîne de cafés", "tax_id": "tax_vat", "locations": [{ "city": "Paris", "lat": 48.868, "lon": 2.338 }] },
    { "id": "ent_mcdonalds", "name": "McDonald's", "type": "Restauration Rapide", "description": "Chaîne de fast-food", "tax_id": "tax_vat", "locations": [{ "city": "Paris", "lat": 48.867, "lon": 2.281 }, { "city": "Lyon", "lat": 45.76, "lon": 4.86 }] },
    { "id": "ent_zara", "name": "Zara", "type": "Habillement", "description": "Enseigne de prêt-à-porter", "tax_id": "tax_vat", "locations": [{ "city": "Paris", "lat": 48.869, "lon": 2.337 }, { "city": "Marseille", "lat": 43.296, "lon": 5.378 }] },
    { "id": "ent_amazon", "name": "Amazon", "type": "E-commerce", "description": "Plateforme de commerce en ligne", "tax_id": "tax_vat", "locations": [{ "city": "Île-de-France", "lat": 48.86, "lon": 2.35 }] },
    { "id": "ent_netflix", "name": "Netflix", "type": "Streaming", "description": "Service de vidéo à la demande", "tax_id": "tax_vat", "locations": [{ "city": "France", "lat": 46.60, "lon": 1.88 }] },
    { "id": "ent_hsbc", "name": "HSBC", "type": "Banque", "description": "Banque internationale mentionnée dans l'enquête.", "tax_id": "tax_tfa", "locations": [{ "city": "DAB Paris", "lat": 48.8724, "lon": 2.3275 }] },
    { "id": "ent_societe_generale", "name": "Société Générale", "type": "Banque", "description": "Banque commerciale mentionnée dans l'enquête.", "tax_id": "tax_tfa", "locations": [{ "city": "DAB Paris", "lat": 48.878, "lon": 2.308 }] },
    { "id": "ent_credit_cooperatif", "name": "Crédit Coopératif", "type": "Banque", "description": "Banque éthique mentionnée dans l'enquête.", "tax_id": "tax_tfa", "locations": [{ "city": "DAB Bordeaux", "lat": 44.83, "lon": -0.57 }, { "city": "Caen", "lat": 49.1825, "lon": -0.3601 }] },
    { "id": "ent_banque_de_france", "name": "Banque de France", "type": "Banque", "description": "Siège social de la Banque de France, (finance).", "tax_id": "tax_campaign", "locations": [{ "city": "Paris", "lat": 48.8635588, "lon": 2.3397514 }, { "city": "Caen", "lat": 49.183049, "lon": -0.354784 }] },
    { "id": "ent_credit_agricole", "name": "Crédit Agricole", "type": "Banque", "description": "Banque commerciale mentionnée dans l'enquête.", "tax_id": "tax_tfa", "locations": [{ "city": "DAB Paris", "lat": 48.88, "lon": 2.30 }] },
    { "id": "ent_la_poste", "name": "La Poste", "type": "Banque", "description": "Banque mentionnée dans l'enquête.", "tax_id": "tax_tfa", "locations": [{"city": "DAB Strasbourg", "lat": 48.586, "lon": 7.757}] },
    { "id": "ent_credit_lyonnais", "name": "Crédit Lyonnais", "type": "Banque", "description": "Banque historique mentionnée dans l'enquête.", "tax_id": "tax_tfa", "locations": [{"city": "DAB Nantes", "lat": 47.21, "lon": -1.55}] },
    { "id": "ent_credit_mutuel", "name": "Crédit Mutuel", "type": "Banque", "description": "Banque mutualiste mentionnée dans l'enquête.", "tax_id": "tax_tfa", "locations": [{"city": "DAB Rennes", "lat": 48.11, "lon": -1.67}] },
    { "id": "ent_cic", "name": "CIC", "type": "Banque", "description": "Banque mentionnée dans l'enquête.", "tax_id": "tax_tfa", "locations": [{ "city": "DAB Paris", "lat": 48.8757, "lon": 2.3364 }] },
    { "id": "ent_europafi", "name": "EUROPAFI", "type": "Holding Financière", "description": "Holding de banques européennes mentionnée dans l'enquête. Ses filiales (DAB) sont situées dans plusieurs villes clés.", "tax_id": "tax_tfa", "locations": [{ "city": "Gateshead", "country": "Royaume-Uni", "country_code": "GB", "lat": 54.9583, "lon": -1.6033 }, { "city": "Dublin", "country": "Irlande", "country_code": "IE", "lat": 53.3498, "lon": -6.2603 }, { "city": "Loughton", "country": "Royaume-Uni", "country_code": "GB", "lat": 51.6500, "lon": 0.0600 }, { "city": "Haarlem", "country": "Pays-Bas", "country_code": "NL", "lat": 52.3874, "lon": 4.6462 }, { "city": "Bruxelles", "country": "Belgique", "country_code": "BE", "lat": 50.8503, "lon": 4.3517 }, { "city": "Berlin", "country": "Allemagne", "country_code": "DE", "lat": 52.5200, "lon": 13.4050 }, { "city": "Munich", "country": "Allemagne", "country_code": "DE", "lat": 48.1351, "lon": 11.5820 }, { "city": "Vienne", "country": "Autriche", "country_code": "AT", "lat": 48.2082, "lon": 16.3738 }, { "city": "Chamalières", "country": "France", "country_code": "FR", "lat": 45.7766, "lon": 3.0645 }, { "city": "Rome", "country": "Italie", "country_code": "IT", "lat": 41.9028, "lon": 12.4964 }, { "city": "Madrid", "country": "Espagne", "country_code": "ES", "lat": 40.4168, "lon": -3.7038 }, { "city": "Carregado", "country": "Portugal", "country_code": "PT", "lat": 39.0494, "lon": -8.9950 }, { "city": "Varsovie", "country": "Pologne", "country_code": "PL", "lat": 52.2297, "lon": 21.0122 }, { "city": "Sofia", "country": "Bulgarie", "country_code": "BG", "lat": 42.6977, "lon": 23.3219 }, { "city": "Athènes", "country": "Grèce", "country_code": "GR", "lat": 37.9838, "lon": 23.7275 }] }
]