[
    {
        "id": "1",
        "cnccfp": "647",
        "name": "PARTI PIRATE",
        "parnom": "PARTI PIRATE",
        "lat": 49.1822,
        "lon": -0.3705,
        "city": "Caen (Normandie)",
        "type": "Parti Politique",
        "description": "Siège national du Parti Pirate (PP).",
        "mediaSource": "src/img/logo_partipirate.png", 
        "mediaType": "image"
    },
    {
        "id": "2",
        "cnccfp": "910",
        "name": "RENAISSANCE",
        "parnom": "RENAISSANCE",
        "lat": 48.8601,
        "lon": 2.3168,
        "city": "Paris (7e)",
        "type": "Parti Politique",
        "description": "Siège national du parti RENAISSANCE (anciennement La République En Marche).",
        "mediaSource": "src/img/logo_renaissance.png", 
        "mediaType": "image"
    },
    {
        "id": "3",
        "cnccfp": "1378",
        "name": "EMP",
        "parnom": "ENSEMBLE ! (MAJORITÉ PRÉSIDENTIELLE)",
        "init": "ENSEMBLE ! (MAJORITÉ PRÉSIDENTIELLE)",
        "lat": 50.8427,
        "lon": 4.3768,
        "city": "Bruxelles (Parlement Européen)",
        "type": "Parti Politique",
        "description": "Localisation symbolique en lien avec le groupe Renew Europe au Parlement Européen à Bruxelles.",
        "mediaSource": "src/img/logo_emp.png", 
        "mediaType": "image"
    },
    {
        "id": "4",
        "cnccfp": "049",
        "name": "RN",
        "parnom": "RASSEMBLEMENT NATIONAL",
        "init": "RASSEMBLEMENT NATIONAL",
        "lat": 48.91911,
        "lon": 2.29311,
        "city": "Saint-Cloud (Hauts-de-Seine)",
        "type": "Parti Politique",
        "description": "Siège national du Rassemblement National (RN).",
        "mediaSource": "src/img/logo_rn.png", 
        "mediaType": "image"
    },
    {
        "id": "5",
        "cnccfp": "1038",
        "name": "EPR",
        "parnom": "ENSEMBLE POUR LA RÉPUBLIQUE",
        "epr": "ENSEMBLE POUR LA RÉPUBLIQUE",
        "lat": 48.8715,
        "lon": 2.3106,
        "city": "Paris (8e)",
        "type": "Parti Politique",
        "description": "Parti affilié à la Majorité Présidentielle (siège à Paris, proche des bureaux nationaux).",
        "mediaSource": "src/img/logo_epr.png", 
        "mediaType": "image"
    },
    {
        "id": "6",
        "cnccfp": "976",
        "name": "LFI",
        "parnom": "LA FRANCE INSOUMISE",
        "init": "LA FRANCE INSOUMISE",
        "lat": 48.8741,
        "lon": 2.3592,
        "city": "Paris (10e - Passage Dubail)",
        "type": "Parti Politique",
        "description": "Siège national officiel de La France Insoumise (LFI).",
        "mediaSource": "src/img/logo_lfi.png", 
        "mediaType": "image"
    },    {
        "id": "6",
        "cnccfp": "976",
        "name": "LFI",
        "parnom": "Europe Ecologie les verts",
        "init": "Europe Ecologie les verts",
        "lat": 48.8741,
        "lon": 2.3592,
        "city": "Paris (10e - Passage Dubail)",
        "type": "Parti Politique",
        "description": "Siège national officiel de La France Insoumise (LFI).",
        "mediaSource": "src/img/logo_lfi.png", 
        "mediaType": "image"
    },
     {
        "id": "7",
        "cnccfp": "104",
        "name": "EELV",
        "parnom": "Europe Ecologie les verts",
        "init": "Europe Ecologie les verts",
        "lat": 47.2821022,
        "lon": -3.0946585,
        "city": "Nante",
        "type": "Parti Politique",
        "description": "Siège national officiel de Europe Ecologie les verts",
        "mediaSource": "src/img/logo_eelv.png", 
        "mediaType": "image"
    }
]
