[
    { "id": "ent_europafi", "name": "EUROPAFI", "type": "Holding Financière", "description": "Holding de banques européennes mentionnée dans l'enquête. Ses filiales (DAB) sont situées dans plusieurs villes clés.", "tax_id": "tax_tfa", "locations": [{ "city": "Gateshead", "country": "Royaume-Uni", "country_code": "GB", "lat": 54.9583, "lon": -1.6033 }, { "city": "Dublin", "country": "Irlande", "country_code": "IE", "lat": 53.3498, "lon": -6.2603 }, { "city": "Loughton", "country": "Royaume-Uni", "country_code": "GB", "lat": 51.6500, "lon": 0.0600 }, { "city": "Haarlem", "country": "Pays-Bas", "country_code": "NL", "lat": 52.3874, "lon": 4.6462 }, { "city": "Bruxelles", "country": "Belgique", "country_code": "BE", "lat": 50.8503, "lon": 4.3517 }, { "city": "Berlin", "country": "Allemagne", "country_code": "DE", "lat": 52.5200, "lon": 13.4050 }, { "city": "Munich", "country": "Allemagne", "country_code": "DE", "lat": 48.1351, "lon": 11.5820 }, { "city": "Vienne", "country": "Autriche", "country_code": "AT", "lat": 48.2082, "lon": 16.3738 }, { "city": "Chamalières", "country": "France", "country_code": "FR", "lat": 45.7766, "lon": 3.0645 }, { "city": "Rome", "country": "Italie", "country_code": "IT", "lat": 41.9028, "lon": 12.4964 }, { "city": "Madrid", "country": "Espagne", "country_code": "ES", "lat": 40.4168, "lon": -3.7038 }, { "city": "Carregado", "country": "Portugal", "country_code": "PT", "lat": 39.0494, "lon": -8.9950 }, { "city": "Varsovie", "country": "Pologne", "country_code": "PL", "lat": 52.2297, "lon": 21.0122 }, { "city": "Sofia", "country": "Bulgarie", "country_code": "BG", "lat": 42.6977, "lon": 23.3219 }, { "city": "Athènes", "country": "Grèce", "country_code": "GR", "lat": 37.9838, "lon": 23.7275 }] }
]