{
      "manifestation_points": [
    { "city": "Caen", "lat": 49.183333, "lon": -0.350000, "count": 6000, "video_link": "https://www.youtube.com/watch?v=pAWZXhCAeeM", "source": "Rapport local", "level": "communal" },
    { "city": "Rennes", "lat": 48.11197912, "lon": -1.68186449, "count": 15000, "video_link": null, "source": "Rapport local", "level": "communal" },
    { "city": "Grenoble", "lat": 45.185, "lon": 5.725, "count": 30000, "video_link": "https://www.youtube.com/watch?v=ZvUkt9Y2uKk", "source": "Divers", "level": "communal" },
    { "city": "Paris", "lat": 48.8679, "lon": 2.3582, "count": "Plusieurs milliers", "video_link": "https://www.youtube.com/watch?v=ZvUkt9Y2uKk", "strategic_location": "Place de la République", "note": "Référence numérique 910", "source": "Média", "level": "national" },
    { "city": "Marseille", "lat": 43.2961, "lon": 5.3699, "count": "Plusieurs milliers", "video_link": "https://www.youtube.com/watch?v=XpdhTarPyac", "source": "Vidéo YouTube", "level": "communal" },
    { "city": "Saint-Malo", "lat": 48.6493, "lon": -2.0076, "count": 170, "video_link": null, "source": "Média local", "level": "communal" },
    { "city": "Fougères", "lat": 48.3519, "lon": -1.205, "count": 380, "video_link": null, "source": "Média local", "level": "communal" },
    { "city": "Valenciennes", "lat": 50.356, "lon": 3.523, "count": { "CGT": 1500, "Police": 700 }, "source": "Rapports syndicaux et policiers", "level": "communal" },
    { "city": "Nantes", "lat": 47.2186, "lon": -1.5541, "count": 200, "source": "Média local", "level": "communal" },
    { "city": "Tours", "lat": 47.3941, "lon": 0.6848, "count": "500", "video_link": "https://www.youtube.com/watch?v=Otqa3o64fbw", "source": "Vidéo YouTube", "level": "communal" },
    { "city": "Amiens", "lat": 49.896546, "lon": 2.311214, "count": "Police: 6500, Syndicats: 8000", "video_link": "https://www.youtube.com/watch?v=5FZqRpcMRuk", "source": "France 3 Hauts-de-France", "level": "communal" },
    { "city": "Lille", "lat": 50.6212, "lon": 3.0448, "count": 3000, "video_link": "https://www.youtube.com/shorts/i3G5dqi520w", "source": "RCF Hauts-de-France", "level": "communal" },
    { "city": "Rouen", "lat": 49.44, "lon": 1.09, "count": "À rechercher", "video_link": "https://www.youtube.com/watch?v=5FZqRpcMRuk", "source": null, "level": "communal" },
    { "city": "Le Havre", "lat": 49.4959, "lon": 0.1311, "count": 20000, "video_link": "https://www.youtube.com/watch?v=5FZqRpcMRuk", "source": "CGT", "level": "communal" },
    { "city": "Bordeaux", "lat": 44.84151, "lon": -0.56997, "count": "À rechercher", "video_link": "https://www.youtube.com/watch?v=5FZqRpcMRuk", "source": null, "level": "communal" },
    { "city": "Poitiers", "lat": 46.58013, "lon": 0.34423, "count": 250, "video_link": "https://www.youtube.com/watch?v=5FZqRpcMRuk", "source": "Le7.info", "level": "communal" },
    { "city": "La Rochelle", "lat": 46.166667, "lon": -1.150000, "count": "Plus de 1500", "video_link": "https://www.youtube.com/watch?v=5FZqRpcMRuk", "source": "YouTube", "level": "communal" },
    { "city": "Foix", "lat": 42.966667, "lon": 1.600000, "count": 8000, "video_link": "https://www.youtube.com/watch?v=5FZqRpcMRuk", "source": "Orange Actu", "level": "communal" },
    { "city": "La Fare-les-Oliviers", "lat": 43.551666, "lon": 5.194722, "count": "À rechercher", "video_link": "https://www.youtube.com/watch?v=5FZqRpcMRuk", "source": null, "level": "local" },
    { "city": "Toulon", "lat": 43.1368, "lon": 5.9336, "count": "À rechercher", "video_link": "https://www.youtube.com/watch?v=5FZqRpcMRuk", "source": null, "level": "communal" },
    { "city": "Albertville", "lat": 45.675535, "lon": 6.392726, "count": 1500, "video_link": "https://www.youtube.com/watch?v=5FZqRpcMRuk", "source": "YouTube", "level": "communal" },
    { "city": "Villeurbanne", "lat": 45.7725, "lon": 4.8966, "count": "Environ 70", "video_link": "https://www.youtube.com/watch?v=5FZqRpcMRuk", "source": "YouTube", "level": "communal" },
    { "city": "Annecy", "lat": 45.8992348, "lon": 6.1288847, "count": "Plusieurs milliers", "video_link": "https://www.youtube.com/watch?v=5FZqRpcMRuk", "source": "YouTube", "level": "communal" },
    { "city": "Créteil", "lat": 48.790367, "lon": 2.455572, "count": "À rechercher", "video_link": "https://www.youtube.com/watch?v=5FZqRpcMRuk", "source": null, "level": "communal" },
    { "city": "Strasbourg", "lat": 48.58406, "lon": 7.75871, "count": "Police: 9500, Organisateurs: 30000", "video_link": "https://www.youtube.com/shorts/TRLPkMeydSk", "source": "Parlement Européen", "level": "communal" },
    { "city": "Reims", "lat": 49.23, "lon": 4.062, "count": "À rechercher", "video_link": "https://www.youtube.com/watch?v=5FZqRpcMRuk", "source": null, "level": "communal" },
    { "city": "Arbois", "lat": 46.902851, "lon": 5.772342, "count": "Environ 60", "video_link": "https://www.youtube.com/watch?v=5FZqRpcMRuk", "source": "Trente Neuf Degrés", "level": "communal" },
    { "city": "Béthune", "lat": 50.531842, "lon": 2.637715, "count": 100, "video_link": "https://www.youtube.com/watch?v=5FZqRpcMRuk", "source": "Calais La Sociale", "level": "communal" },
    { "city": "Beauvais", "lat": 49.4333, "lon": 2.0833, "count": "À rechercher", "video_link": "https://www.youtube.com/watch?v=5FZqRpcMRuk", "source": null, "level": "communal" },
    { "city": "Tonneins", "lat": 44.389722, "lon": 0.308333, "count": "Environ 3000", "video_link": "https://www.youtube.com/watch?v=5FZqRpcMRuk", "source": "Dailymotion", "level": "communal" },
    { "city": "Vienne", "lat": 45.526167, "lon": 4.875277, "count": "À rechercher", "video_link": "https://www.youtube.com/watch?v=5FZqRpcMRuk", "source": null, "level": "communal" },
    { "city": "Toulouse", "lat": 43.6045, "lon": 1.4442, "count": "À rechercher", "video_link": "https://www.youtube.com/shorts/8wR4VZF5UpQ", "source": "AES TV", "level": "communal" },
    { "city": "Pau", "lat": 43.2951, "lon": -0.370797, "count": "2500", "video_link": "https://www.youtube.com/watch?v=xwTfADirufs", "source": "youtube", "level": "communal" },
    { "city": "Ploërmel", "lat": 47.929286, "lon": -2.396499, "count": "500", "video_link": "https://www.youtube.com/watch?v=K9-l_Aqf3Hw", "source": "Les Infos du Pays Gallo", "level": "communal" },
    { "city": "Dublin", "country": "Irlande", "name": "Ambassade de France", "lat": 53.338706, "lon": -6.249520, "count": "1 000 000", "video_link": "https://www.youtube.com/shorts/4ecsRbPunEk", "level": "europe" },
    { "city": "Madrid", "country": "Espagne", "lat": 40.416775, "lon": -3.703790, "count": "Milliers", "source": "Divers médias espagnols", "level": "europe" },
    { "city": "Bruxelles", "country": "Belgique", "lat": 50.850346, "lon": 4.351721, "count": "Données à vérifier", "source": "Non confirmée pour cette date","video_link": "https://www.youtube.com/shorts/BB4yltCWAFU,https://www.youtube.com/shorts/9fyJzxQ879k", "level": "europe" },
    { "city": "Berlin", "country": "Allemagne", "lat": 52.520008, "lon": 13.404954, "count": "Données à vérifier", "source": "Non confirmée pour cette date", "level": "europe" }
  ]
}