[
  { "id": 1, "name": "Marche Climat Paris", "type": "Marche pour le climat", "description": "Rassemblement Place de la République. Centre de la mobilisation nationale.", "lat": 48.867958, "lon": 2.361841, "mediaSource": "https://www.youtube.com/embed/wC5mo9N2rbg", "mediaType": "video" },
  { "id": 1, "name": "Marche Climat Paris", "type": "Marche pour le climat", "description": "Rassemblement Place de la République. Centre de la mobilisation nationale.", "lat": 48.867958, "lon": 2.361841, "mediaSource": "", "mediaType": "video" },
  { "id": 2, "name": "Marche Climat Lyon", "type": "Marche pour le climat", "description": "Départ Place Bellecour. Forte mobilisation régionale.", "lat": 45.764043, "lon": 4.835659, "mediaSource": "src/img/climat/Lyon.jpg", "mediaType": "image" },
  { "id": 3, "name": "Marche Climat Bordeaux", "type": "Marche pour le climat", "description": "Rassemblement au Miroir d'Eau. Centré sur l'adaptation du littoral.", "lat": 44.840742, "lon": -0.574676, "mediaSource": "src/img/climat/Bordeaux.jpg", "mediaType": "image" },
  { "id": 4, "name": "Marche Climat Lille", "type": "Marche pour le climat", "description": "Rassemblement Place de la République. Axé sur la pollution industrielle.", "lat": 50.636565, "lon": 3.063528, "mediaSource": "https://placehold.co/600x400/16a34a/ffffff?text=Image+Lille", "mediaType": "image" },
  { "id": 5, "name": "Marche Climat Nantes", "type": "Marche pour le climat", "description": "Rassemblement Parvis des Nefs. Dénonciation du bétonnage.", "lat": 47.2066, "lon": -1.5543, "mediaSource": "src/img/climat/Nante.jpg", "mediaType": "image" },
  { "id": 6, "name": "Marche Climat Marseille", "type": "Marche pour le climat", "description": "Rassemblement Place des Réformés.", "lat": 43.3033, "lon": 5.3855, "mediaSource": "src/img/climat/Marseille.jpg", "mediaType": "image" },
  { "id": 7, "name": "Marche Climat Toulouse", "type": "Marche pour le climat", "description": "Rassemblement Place du Capitole.", "lat": 43.6045, "lon": 1.444, "mediaSource": "src/img/default-climat.png", "mediaType": "image" },
  { "id": 8, "name": "Marche Climat Nice", "type": "Marche pour le climat", "description": "Rassemblement Place Masséna.", "lat": 43.6960, "lon": 7.2662, "mediaSource": "src/img/climat/Nice.jpg", "mediaType": "image" },
  { "id": 9, "name": "Marche Climat Strasbourg", "type": "Marche pour le climat", "description": "Rassemblement Place Kléber.", "lat": 48.5825, "lon": 7.7455, "mediaSource": "src/img/default-climat.png", "mediaType": "image" },
  { "id": 10, "name": "Marche Climat Montpellier", "type": "Marche pour le climat", "description": "Rassemblement Place de la Comédie.", "lat": 43.6119, "lon": 3.8772, "mediaSource": "src/img/default-climat.png", "mediaType": "image" },
  { "id": 11, "name": "Marche Climat Rennes", "type": "Marche pour le climat", "description": "Rassemblement Place de la République.", "lat": 48.1147, "lon": -1.6794, "mediaSource": "src/img/default-climat.png", "mediaType": "image" },
  { "id": 12, "name": "Marche Climat Reims", "type": "Marche pour le climat", "description": "Rassemblement Place Drouet d'Erlon.", "lat": 49.2628, "lon": 4.0347, "mediaSource": "src/img/default-climat.png", "mediaType": "image" },
  { "id": 13, "name": "Marche Climat Le Havre", "type": "Marche pour le climat", "description": "Rassemblement Place de l'Hôtel de Ville.", "lat": 49.4938, "lon": 0.1077, "mediaSource": "src/img/default-climat.png", "mediaType": "image" },
  { "id": 14, "name": "Marche Climat Saint-Étienne", "type": "Marche pour le climat", "description": "Rassemblement Place Jean Jaurès.", "lat": 45.4347, "lon": 4.3903, "mediaSource": "src/img/default-climat.png", "mediaType": "image" },
  { "id": 15, "name": "Marche Climat Toulon", "type": "Marche pour le climat", "description": "Rassemblement Place de la Liberté.", "lat": 43.1258, "lon": 5.9306, "mediaSource": "src/img/default-climat.png", "mediaType": "image" },
  { "id": 16, "name": "Marche Climat Grenoble", "type": "Marche pour le climat", "description": "Rassemblement Place Victor Hugo.", "lat": 45.1715, "lon": 5.7224, "mediaSource": "src/img/default-climat.png", "mediaType": "image" },
  { "id": 17, "name": "Marche Climat Dijon", "type": "Marche pour le climat", "description": "Rassemblement Place de la Libération.", "lat": 47.3167, "lon": 5.0167, "mediaSource": "src/img/default-climat.png", "mediaType": "image" },
  { "id": 18, "name": "Marche Climat Nîmes", "type": "Marche pour le climat", "description": "Rassemblement Place de la Maison Carrée.", "lat": 43.8383, "lon": 4.3597, "mediaSource": "src/img/default-climat.png", "mediaType": "image" },
  { "id": 19, "name": "Marche Climat Angers", "type": "Marche pour le climat", "description": "Rassemblement Place du Ralliement.", "lat": 47.4736, "lon": -0.5542, "mediaSource": "src/img/default-climat.png", "mediaType": "image" },
  { "id": 20, "name": "Marche Climat Clermont-Ferrand", "type": "Marche pour le climat", "description": "Rassemblement Place de Jaude.", "lat": 45.7831, "lon": 3.0824, "mediaSource": "src/img/default-climat.png", "mediaType": "image" },
  { "id": 21, "name": "Marche Climat Brest", "type": "Marche pour le climat", "description": "Rassemblement Place de la Liberté.", "lat": 48.3900, "lon": -4.4900, "mediaSource": "src/img/default-climat.png", "mediaType": "image" },
  { "id": 22, "name": "Marche Climat Tours", "type": "Marche pour le climat", "description": "Rassemblement Place Jean Jaurès.", "lat": 47.3936, "lon": 0.6892, "mediaSource": "src/img/default-climat.png", "mediaType": "image" },
  { "id": 23, "name": "Marche Climat Amiens", "type": "Marche pour le climat", "description": "Rassemblement Place Gambetta.", "lat": 49.8920, "lon": 2.2990, "mediaSource": "src/img/climat/Amiens.jpg", "mediaType": "image" },
  { "id": 24, "name": "Marche Climat Limoges", "type": "Marche pour le climat", "description": "Rassemblement Place de la République.", "lat": 45.8353, "lon": 1.2625, "mediaSource": "src/img/default-climat.png", "mediaType": "image" },
  { "id": 25, "name": "Marche Climat Perpignan", "type": "Marche pour le climat", "description": "Rassemblement Place de Catalogne.", "lat": 42.6986, "lon": 2.8956, "mediaSource": "src/img/climat/Perpignan.jpg", "mediaType": "image" },
  { "id": 26, "name": "Marche Climat Metz", "type": "Marche pour le climat", "description": "Rassemblement Place de la République.", "lat": 49.1203, "lon": 6.1778, "mediaSource": "src/img/default-climat.png", "mediaType": "image" },
  { "id": 27, "name": "Marche Climat Besançon", "type": "Marche pour le climat", "description": "Rassemblement Place de la Révolution.", "lat": 47.2400, "lon": 6.0200, "mediaSource": "src/img/default-climat.png", "mediaType": "image" },
  { "id": 28, "name": "Marche Climat Orléans", "type": "Marche pour le climat", "description": "Rassemblement Place du Martroi.", "lat": 47.9025, "lon": 1.9090, "mediaSource": "src/img/default-climat.png", "mediaType": "image" },
  { "id": 29, "name": "Marche Climat Rouen", "type": "Marche pour le climat", "description": "Rassemblement Place du Vieux Marché.", "lat": 49.4428, "lon": 1.0886, "mediaSource": "src/img/default-climat.png", "mediaType": "image" },
  { "id": 30, "name": "Marche Climat Caen", "type": "Marche pour le climat", "description": "Rassemblement Place Saint-Sauveur.", "lat": 49.1814, "lon": -0.3636, "mediaSource": "src/img/default-climat.png", "mediaType": "image" },
  { "id": 31, "name": "Marche Climat Nancy", "type": "Marche pour le climat", "description": "Rassemblement Place Stanislas.", "lat": 48.6936, "lon": 6.1846, "mediaSource": "src/img/default-climat.png", "mediaType": "image" },
  { "id": 32, "name": "Marche Climat Pau", "type": "Marche pour le climat", "description": "Rassemblement Place Royale.", "lat": 43.2951, "lon": -0.3683, "mediaSource": "src/img/default-climat.png", "mediaType": "image" },
  { "id": 33, "name": "Marche Climat Avignon", "type": "Marche pour le climat", "description": "Rassemblement Place de l'Horloge.", "lat": 43.9489, "lon": 4.8090, "mediaSource": "src/img/default-climat.png", "mediaType": "image" },
  { "id": 34, "name": "Marche Climat Dunkerque", "type": "Marche pour le climat", "description": "Rassemblement Place Jean Bart.", "lat": 51.0383, "lon": 2.3775, "mediaSource": "src/img/climat/Dunkerque.jpg", "mediaType": "image" },
  { "id": 35, "name": "Marche Climat Cannes", "type": "Marche pour le climat", "description": "Rassemblement Croisette.", "lat": 43.5516, "lon": 7.0177, "mediaSource": "src/img/default-climat.png", "mediaType": "image" },
  { "id": 36, "name": "Marche Climat La Rochelle", "type": "Marche pour le climat", "description": "Rassemblement Vieux Port.", "lat": 46.1600, "lon": -1.1500, "mediaSource": "src/img/default-climat.png", "mediaType": "image" },
  { "id": 37, "name": "Marche Climat Saint-Nazaire", "type": "Marche pour le climat", "description": "Rassemblement Place des Droits de l'Homme.", "lat": 47.2800, "lon": -2.2045, "mediaSource": "src/img/default-climat.png", "mediaType": "image" },
  { "id": 38, "name": "Marche Climat Ajaccio", "type": "Marche pour le climat", "description": "Rassemblement Place Foch.", "lat": 41.9264, "lon": 8.7360, "mediaSource": "src/img/default-climat.png", "mediaType": "image" },
  { "id": 39, "name": "Marche Climat Quimper", "type": "Marche pour le climat", "description": "Rassemblement Place Saint-Corentin.", "lat": 47.9976, "lon": -4.1042, "mediaSource": "src/img/default-climat.png", "mediaType": "image" },
  { "id": 40, "name": "Marche Climat Valence", "type": "Marche pour le climat", "description": "Rassemblement Place de la Liberté.", "lat": 44.9333, "lon": 4.8923, "mediaSource": "src/img/default-climat.png", "mediaType": "image" },
  { "id": 41, "name": "Marche Climat Angoulême", "type": "Marche pour le climat", "description": "Rassemblement Place des Halles.", "lat": 45.6500, "lon": 0.1500, "mediaSource": "src/img/default-climat.png", "mediaType": "image" },
  { "id": 42, "name": "Marche Climat Annecy", "type": "Marche pour le climat", "description": "Rassemblement Pâquier.", "lat": 45.9160, "lon": 6.1330, "mediaSource": "src/img/default-climat.png", "mediaType": "image" },
  { "id": 43, "name": "Marche Climat Bayonne", "type": "Marche pour le climat", "description": "Rassemblement Place de la Liberté.", "lat": 43.4933, "lon": -1.4746, "mediaSource": "src/img/default-climat.png", "mediaType": "image" },
  { "id": 44, "name": "Marche Climat Belfort", "type": "Marche pour le climat", "description": "Rassemblement Place d'Armes.", "lat": 47.6400, "lon": 6.8600, "mediaSource": "src/img/default-climat.png", "mediaType": "image" },
  { "id": 45, "name": "Marche Climat Bourges", "type": "Marche pour le climat", "description": "Rassemblement Place Étienne Dolet.", "lat": 47.0833, "lon": 2.4000, "mediaSource": "src/img/default-climat.png", "mediaType": "image" },
  { "id": 46, "name": "Marche Climat Brest", "type": "Marche pour le climat", "description": "Rassemblement Place de la Liberté.", "lat": 48.3900, "lon": -4.4900, "mediaSource": "src/img/default-climat.png", "mediaType": "image" },
  { "id": 47, "name": "Marche Climat Carcassonne", "type": "Marche pour le climat", "description": "Rassemblement Place Carnot.", "lat": 43.2166, "lon": 2.3500, "mediaSource": "src/img/default-climat.png", "mediaType": "image" },
  { "id": 48, "name": "Marche Climat Chartres", "type": "Marche pour le climat", "description": "Rassemblement Place des Épars.", "lat": 48.4461, "lon": 1.4883, "mediaSource": "src/img/default-climat.png", "mediaType": "image" },
  { "id": 49, "name": "Marche Climat Colmar", "type": "Marche pour le climat", "description": "Rassemblement Place Rapp.", "lat": 48.0792, "lon": 7.3594, "mediaSource": "src/img/default-climat.png", "mediaType": "image" },
  { "id": 50, "name": "Marche Climat Dieppe", "type": "Marche pour le climat", "description": "Rassemblement Quai Henri IV.", "lat": 49.9238, "lon": 1.0772, "mediaSource": "src/img/default-climat.png", "mediaType": "image" },
  { "id": 51, "name": "Marche Climat Épinal", "type": "Marche pour le climat", "description": "Rassemblement Place des Vosges.", "lat": 48.1764, "lon": 6.4462, "mediaSource": "src/img/default-climat.png", "mediaType": "image" },
  { "id": 52, "name": "Marche Climat Laon", "type": "Marche pour le climat", "description": "Rassemblement Place de l'Hôtel de Ville.", "lat": 49.5606, "lon": 3.6233, "mediaSource": "src/img/default-climat.png", "mediaType": "image" },
  { "id": 53, "name": "Marche Climat Le Mans", "type": "Marche pour le climat", "description": "Rassemblement Place de la République.", "lat": 48.0077, "lon": 0.1984, "mediaSource": "src/img/default-climat.png", "mediaType": "image" },
  { "id": 54, "name": "Marche Climat Lorient", "type": "Marche pour le climat", "description": "Rassemblement Place Jules Ferry.", "lat": 47.7485, "lon": -3.3639, "mediaSource": "src/img/default-climat.png", "mediaType": "image" },
  { "id": 55, "name": "Marche Climat Menton", "type": "Marche pour le climat", "description": "Rassemblement Kiosque à Musique.", "lat": 43.7749, "lon": 7.5020, "mediaSource": "src/img/default-climat.png", "mediaType": "image" },
  { "id": 56, "name": "Marche Climat Montauban", "type": "Marche pour le climat", "description": "Rassemblement Place Nationale.", "lat": 44.0166, "lon": 1.3500, "mediaSource": "src/img/default-climat.png", "mediaType": "image" },
  { "id": 57, "name": "Marche Climat Nevers", "type": "Marche pour le climat", "description": "Rassemblement Place Carnot.", "lat": 46.9922, "lon": 3.1596, "mediaSource": "src/img/default-climat.png", "mediaType": "image" },
  { "id": 58, "name": "Marche Climat Niort", "type": "Marche pour le climat", "description": "Rassemblement Place de la Brèche.", "lat": 46.3242, "lon": -0.4632, "mediaSource": "src/img/default-climat.png", "mediaType": "image" },
  { "id": 59, "name": "Marche Climat Périgueux", "type": "Marche pour le climat", "description": "Rassemblement Place Tourny.", "lat": 45.1833, "lon": 0.7166, "mediaSource": "src/img/default-climat.png", "mediaType": "image" },
  { "id": 60, "name": "Marche Climat Poitiers", "type": "Marche pour le climat", "description": "Rassemblement Place du Maréchal Leclerc.", "lat": 46.5833, "lon": 0.3333, "mediaSource": "src/img/default-climat.png", "mediaType": "image" },
  { "id": 61, "name": "Marche Climat Bruxelles", "type": "Marche pour le climat", "description": "Rassemblement Gare du Nord (Bruxelles). Demande de justice climatique et de droits humains.", "lat": 50.85966, "lon": 4.3582, "mediaSource": "https://placehold.co/600x400/003366/ffffff?text=BE-Bruxelles", "mediaType": "image" },
  { "id": 62, "name": "Marche Climat Berlin", "type": "Marche pour le climat", "description": "Rassemblement devant la Porte de Brandebourg.", "lat": 52.51627, "lon": 13.3777, "mediaSource": "src/img/default-climat.png", "mediaType": "image" },
  { "id": 63, "name": "Marche Climat Londres", "type": "Marche pour le climat", "description": "Rassemblement Trafalgar Square.", "lat": 51.50735, "lon": -0.12776, "mediaSource": "src/img/default-climat.png", "mediaType": "image" },
  { "id": 64, "name": "Marche Climat Madrid", "type": "Marche pour le climat", "description": "Rassemblement Plaza Mayor.", "lat": 40.41677, "lon": -3.70379, "mediaSource": "src/img/default-climat.png", "mediaType": "image" },
  { "id": 65, "name": "Marche Climat Rome", "type": "Marche pour le climat", "description": "Rassemblement Colisée.", "lat": 41.8902, "lon": 12.4923, "mediaSource": "src/img/default-climat.png", "mediaType": "image" },
  { "id": 66, "name": "Marche Climat New York", "type": "Marche pour le climat", "description": "Rassemblement devant le siège de l'ONU.", "lat": 40.7484, "lon": -73.9857, "mediaSource": "src/img/default-climat.png", "mediaType": "image" },
  { "id": 67, "name": "Marche Climat Montréal", "type": "Marche pour le climat", "description": "Grande mobilisation au Mont Royal.", "lat": 45.5017, "lon": -73.5673, "mediaSource": "src/img/default-climat.png", "mediaType": "image" },
  { "id": 68, "name": "Marche Climat Sydney", "type": "Marche pour le climat", "description": "Rassemblement Opéra de Sydney.", "lat": -33.856, "lon": 151.215, "mediaSource": "src/img/default-climat.png", "mediaType": "image" },
  { "id": 69, "name": "Marche Climat Tokyo", "type": "Marche pour le climat", "description": "Rassemblement devant le bâtiment du gouvernement métropolitain.", "lat": 35.6895, "lon": 139.6917, "mediaSource": "src/img/default-climat.png", "mediaType": "image" },
  { "id": 70, "name": "Marche Climat Rio de Janeiro", "type": "Marche pour le climat", "description": "Rassemblement Plage de Copacabana.", "lat": -22.9068, "lon": -43.1729, "mediaSource": "src/img/default-climat.png", "mediaType": "image" },
  { "id": 71, "name": "Marche Climat Le Caire", "type": "Marche pour le climat", "description": "Rassemblement Place Tahrir.", "lat": 30.0444, "lon": 31.2357, "mediaSource": "src/img/default-climat.png", "mediaType": "image" },
  { "id": 72, "name": "Marche Climat Buenos Aires", "type": "Marche pour le climat", "description": "Rassemblement Plaza de Mayo.", "lat": -34.6037, "lon": -58.3816, "mediaSource": "src/img/default-climat.png", "mediaType": "image" },
  { "id": 73, "name": "Marche Climat Mexico", "type": "Marche pour le climat", "description": "Rassemblement Zócalo.", "lat": 19.4326, "lon": -99.1332, "mediaSource": "src/img/default-climat.png", "mediaType": "image" },
  { "id": 74, "name": "Marche Climat Toronto", "type": "Marche pour le climat", "description": "Rassemblement Queen's Park.", "lat": 43.6532, "lon": -79.3831, "mediaSource": "src/img/default-climat.png", "mediaType": "image" },
  { "id": 75, "name": "Marche Climat Vancouver", "type": "Marche pour le climat", "description": "Rassemblement Vancouver Art Gallery.", "lat": 49.2827, "lon": -123.1207, "mediaSource": "src/img/default-climat.png", "mediaType": "image" },
  { "id": 76, "name": "Marche Climat Santiago", "type": "Marche pour le climat", "description": "Rassemblement Plaza de Armas.", "lat": -33.4489, "lon": -70.6693, "mediaSource": "src/img/default-climat.png", "mediaType": "image" },
  { "id": 77, "name": "Marche Climat Lima", "type": "Marche pour le climat", "description": "Rassemblement Plaza Mayor de Lima.", "lat": -12.0464, "lon": -77.0428, "mediaSource": "src/img/default-climat.png", "mediaType": "image" },
  { "id": 78, "name": "Marche Climat Bogota", "type": "Marche pour le climat", "description": "Rassemblement Plaza de Bolívar.", "lat": 4.7110, "lon": -74.0721, "mediaSource": "src/img/default-climat.png", "mediaType": "image" },
  { "id": 79, "name": "Marche Climat Dublin", "type": "Marche pour le climat", "description": "Rassemblement Garden of Remembrance.", "lat": 53.3498, "lon": -6.2603, "mediaSource": "src/img/default-climat.png", "mediaType": "image" },
  { "id": 80, "name": "Marche Climat Édimbourg", "type": "Marche pour le climat", "description": "Rassemblement Holyrood Park.", "lat": 55.9533, "lon": -3.1883, "mediaSource": "src/img/default-climat.png", "mediaType": "image" },
  { "id": 81, "name": "Marche Climat Genève", "type": "Marche pour le climat", "description": "Rassemblement Place des Nations.", "lat": 46.2201, "lon": 6.1331, "mediaSource": "src/img/default-climat.png", "mediaType": "image" },
  { "id": 82, "name": "Marche Climat Vienne", "type": "Marche pour le climat", "description": "Rassemblement Stephansplatz.", "lat": 48.2082, "lon": 16.3738, "mediaSource": "src/img/default-climat.png", "mediaType": "image" },
  { "id": 83, "name": "Marche Climat Varsovie", "type": "Marche pour le climat", "description": "Rassemblement Place du Château.", "lat": 52.2297, "lon": 21.0122, "mediaSource": "src/img/default-climat.png", "mediaType": "image" },
  { "id": 84, "name": "Marche Climat Prague", "type": "Marche pour le climat", "description": "Rassemblement Place de la Vieille Ville.", "lat": 50.0875, "lon": 14.4208, "mediaSource": "src/img/default-climat.png", "mediaType": "image" },
  { "id": 85, "name": "Marche Climat Budapest", "type": "Marche pour le climat", "description": "Rassemblement Place des Héros.", "lat": 47.4979, "lon": 19.0402, "mediaSource": "src/img/default-climat.png", "mediaType": "image" },
  { "id": 86, "name": "Marche Climat Athènes", "type": "Marche pour le climat", "description": "Rassemblement Place Syntagma.", "lat": 37.9838, "lon": 23.7275, "mediaSource": "src/img/default-climat.png", "mediaType": "image" },
  { "id": 87, "name": "Marche Climat Lisbonne", "type": "Marche pour le climat", "description": "Rassemblement Praça do Comércio.", "lat": 38.7077, "lon": -9.1360, "mediaSource": "src/img/default-climat.png", "mediaType": "image" },
  { "id": 88, "name": "Marche Climat Copenhague", "type": "Marche pour le climat", "description": "Rassemblement Place de l'Hôtel de Ville.", "lat": 55.6761, "lon": 12.5683, "mediaSource": "src/img/default-climat.png", "mediaType": "image" },
  { "id": 89, "name": "Marche Climat Helsinki", "type": "Marche pour le climat", "description": "Rassemblement Place du Sénat.", "lat": 60.1695, "lon": 24.9355, "mediaSource": "src/img/default-climat.png", "mediaType": "image" },
  { "id": 90, "name": "Marche Climat Oslo", "type": "Marche pour le climat", "description": "Rassemblement devant le Parlement.", "lat": 59.9139, "lon": 10.7522, "mediaSource": "src/img/default-climat.png", "mediaType": "image" },
  { "id": 91, "name": "Marche Climat Stockholm", "type": "Marche pour le climat", "description": "Rassemblement Sergels Torg.", "lat": 59.3293, "lon": 18.0686, "mediaSource": "src/img/default-climat.png", "mediaType": "image" },
  { "id": 92, "name": "Marche Climat Singapour", "type": "Marche pour le climat", "description": "Rassemblement Speakers' Corner.", "lat": 1.3521, "lon": 103.8198, "mediaSource": "src/img/default-climat.png", "mediaType": "image" },
  { "id": 93, "name": "Marche Climat Hong Kong", "type": "Marche pour le climat", "description": "Rassemblement Victoria Park.", "lat": 22.3193, "lon": 114.1694, "mediaSource": "src/img/default-climat.png", "mediaType": "image" },
  { "id": 94, "name": "Marche Climat Mumbai", "type": "Marche pour le climat", "description": "Rassemblement Marine Drive.", "lat": 19.0760, "lon": 72.8777, "mediaSource": "src/img/default-climat.png", "mediaType": "image" },
  { "id": 95, "name": "Marche Climat Dubai", "type": "Marche pour le climat", "description": "Rassemblement Burj Park.", "lat": 25.1972, "lon": 55.2744, "mediaSource": "src/img/default-climat.png", "mediaType": "image" },
  { "id": 96, "name": "Marche Climat Johannesburg", "type": "Marche pour le climat", "description": "Rassemblement Mandela Square.", "lat": -26.2041, "lon": 28.0473, "mediaSource": "src/img/default-climat.png", "mediaType": "image" },
  { "id": 97, "name": "Marche Climat Mexico City", "type": "Marche pour le climat", "description": "Rassemblement Monumento a la Revolución.", "lat": 19.4326, "lon": -99.1332, "mediaSource": "src/img/default-climat.png", "mediaType": "image" },
  { "id": 98, "name": "Marche Climat Washington DC", "type": "Marche pour le climat", "description": "Rassemblement National Mall.", "lat": 38.8899, "lon": -77.0091, "mediaSource": "https://www.youtube.com/embed/2jZU48vkjCo", "mediaType": "video" },
  { "id": 99, "name": "Marche Climat San Francisco", "type": "Marche pour le climat", "description": "Rassemblement Civic Center Plaza.", "lat": 37.7749, "lon": -122.4194, "mediaSource": "src/img/default-climat.png", "mediaType": "image" },
  { "id": 100, "name": "Marche Climat Toronto", "type": "Marche pour le climat", "description": "Rassemblement Nathan Phillips Square.", "lat": 43.6532, "lon": -79.3831, "mediaSource": "src/img/default-climat.png", "mediaType": "image" }
]