[
    { "id": 1, "department": "01 Ain", "city": "Bourg-en-Bresse", "lat": 46.2057, "lon": 5.2289, "type": "Préfecture", "level": "departmental" },
    { "id": 2, "department": "02 Aisne", "city": "Laon", "lat": 49.5638, "lon": 3.6262, "type": "Préfecture", "level": "departmental" },
    { "id": 3, "department": "03 Allier", "city": "Moulins", "lat": 46.5658, "lon": 3.3323, "type": "Préfecture", "level": "departmental" },
    { "id": 4, "department": "04 Alpes de Haute Provence", "city": "Digne-les-Bains", "lat": 44.0924, "lon": 6.2346, "type": "Préfecture", "level": "departmental" },
    { "id": 5, "department": "05 Hautes Alpes", "city": "Gap", "lat": 44.5615, "lon": 6.0792, "type": "Préfecture", "level": "departmental" },
    { "id": 6, "department": "06 Alpes Maritimes", "city": "Nice", "lat": 43.7009, "lon": 7.2625, "type": "Préfecture", "level": "departmental" },
    { "id": 7, "department": "07 Ardèche", "city": "Privas", "lat": 44.737, "lon": 4.598, "type": "Préfecture", "level": "departmental" },
    { "id": 8, "department": "08 Ardennes", "city": "Charleville-Mézières", "lat": 49.7766, "lon": 4.7265, "type": "Préfecture", "level": "departmental" },
    { "id": 9, "department": "09 Ariège", "city": "Foix", "lat": 42.9634, "lon": 1.6083, "type": "Préfecture", "level": "departmental" },
    { "id": 10, "department": "10 Aube", "city": "Troyes", "lat": 48.2974, "lon": 4.0746, "type": "Préfecture", "level": "departmental" },
    { "id": 11, "department": "11 Aude", "city": "Carcassonne", "lat": 43.2104, "lon": 2.3486, "type": "Préfecture", "level": "departmental" },
    { "id": 12, "department": "12 Aveyron", "city": "Rodez", "lat": 44.3524, "lon": 2.5714, "type": "Préfecture", "level": "departmental" },
    { "id": 13, "department": "13 Bouches du Rhône", "city": "Marseille", "lat": 43.2961, "lon": 5.3699, "type": "Préfecture", "level": "departmental" },
    { "id": 14, "department": "14 Calvados", "city": "Caen", "lat": 49.182, "lon": -0.3705, "type": "Préfecture", "level": "departmental" },
    { "id": 15, "department": "15 Cantal", "city": "Aurillac", "lat": 44.9221, "lon": 2.4439, "type": "Préfecture", "level": "departmental" },
    { "id": 16, "department": "16 Charente", "city": "Angoulême", "lat": 45.6486, "lon": 0.156, "type": "Préfecture", "level": "departmental" },
    { "id": 17, "department": "17 Charente Maritime", "city": "La Rochelle", "lat": 46.1603, "lon": -1.1511, "type": "Préfecture", "level": "departmental" },
    { "id": 18, "department": "18 Cher", "city": "Bourges", "lat": 47.0842, "lon": 2.3965, "type": "Préfecture", "level": "departmental" },
    { "id": 19, "department": "19 Corrèze", "city": "Tulle", "lat": 45.2662, "lon": 1.771, "type": "Préfecture", "level": "departmental" },
    { "id": 20, "department": "2a Corse du Sud", "city": "Ajaccio", "lat": 41.9205, "lon": 8.7397, "type": "Préfecture", "level": "departmental" },
    { "id": 21, "department": "2b Haute Corse", "city": "Bastia", "lat": 42.7011, "lon": 9.4507, "type": "Préfecture", "level": "departmental" },
    { "id": 22, "department": "21 Côte d'Or", "city": "Dijon", "lat": 47.3222, "lon": 5.043, "type": "Préfecture", "level": "departmental" },
    { "id": 23, "department": "22 Côtes d'Armor", "city": "Saint-Brieuc", "lat": 48.5135, "lon": -2.766, "type": "Préfecture", "level": "departmental" },
    { "id": 24, "department": "23 Creuse", "city": "Guéret", "lat": 46.1706, "lon": 1.871, "type": "Préfecture", "level": "departmental" },
    { "id": 25, "department": "24 Dordogne", "city": "Périgueux", "lat": 45.1843, "lon": 0.7208, "type": "Préfecture", "level": "departmental" },
    { "id": 26, "department": "25 Doubs", "city": "Besançon", "lat": 47.2378, "lon": 6.0245, "type": "Préfecture", "level": "departmental" },
    { "id": 27, "department": "26 Drôme", "city": "Valence", "lat": 44.9333, "lon": 4.8917, "type": "Préfecture", "level": "departmental" },
    { "id": 28, "department": "27 Eure", "city": "Évreux", "lat": 49.0234, "lon": 1.1504, "type": "Préfecture", "level": "departmental" },
    { "id": 29, "department": "28 Eure et Loir", "city": "Chartres", "lat": 48.4475, "lon": 1.4883, "type": "Préfecture", "level": "departmental" },
    { "id": 30, "department": "29 Finistère", "city": "Quimper", "lat": 47.9943, "lon": -4.1039, "type": "Préfecture", "level": "departmental" },
    { "id": 31, "department": "30 Gard", "city": "Nîmes", "lat": 43.8368, "lon": 4.3601, "type": "Préfecture", "level": "departmental" },
    { "id": 32, "department": "31 Haute Garonne", "city": "Toulouse", "lat": 43.6045, "lon": 1.4442, "type": "Préfecture", "level": "departmental" },
    { "id": 33, "department": "32 Gers", "city": "Auch", "lat": 43.6465, "lon": 0.5853, "type": "Préfecture", "level": "departmental" },
    { "id": 34, "department": "33 Gironde", "city": "Bordeaux", "lat": 44.8378, "lon": -0.5792, "type": "Préfecture", "level": "departmental" },
    { "id": 35, "department": "34 Hérault", "city": "Montpellier", "lat": 43.6108, "lon": 3.8767, "type": "Préfecture", "level": "departmental" },
    { "id": 36, "department": "35 Ille et Vilaine", "city": "Rennes", "lat": 48.1173, "lon": -1.6778, "type": "Préfecture", "level": "departmental" },
    { "id": 37, "department": "36 Indre", "city": "Châteauroux", "lat": 46.8066, "lon": 1.6917, "type": "Préfecture", "level": "departmental" },
    { "id": 38, "department": "37 Indre et Loire", "city": "Tours", "lat": 47.3941, "lon": 0.6848, "type": "Préfecture", "level": "departmental" },
    { "id": 39, "department": "38 Isère", "city": "Grenoble", "lat": 45.1885, "lon": 5.7245, "type": "Préfecture", "level": "departmental" },
    { "id": 40, "department": "39 Jura", "city": "Lons-le-Saunier", "lat": 46.6713, "lon": 5.556, "type": "Préfecture", "level": "departmental" },
    { "id": 41, "department": "40 Landes", "city": "Mont-de-Marsan", "lat": 43.891, "lon": -0.5005, "type": "Préfecture", "level": "departmental" },
    { "id": 42, "department": "41 Loir et Cher", "city": "Blois", "lat": 47.585, "lon": 1.332, "type": "Préfecture", "level": "departmental" },
    { "id": 43, "department": "42 Loire", "city": "Saint-Étienne", "lat": 45.4397, "lon": 4.3872, "type": "Préfecture", "level": "departmental" },
    { "id": 44, "department": "43 Haute Loire", "city": "Le Puy-en-Velay", "lat": 45.0433, "lon": 3.8852, "type": "Préfecture", "level": "departmental" },
    { "id": 45, "department": "44 Loire Atlantique", "city": "Nantes", "lat": 47.2186, "lon": -1.5541, "type": "Préfecture", "level": "departmental" },
    { "id": 46, "department": "45 Loiret", "city": "Orléans", "lat": 47.9029, "lon": 1.909, "type": "Préfecture", "level": "departmental" },
    { "id": 47, "department": "46 Lot", "city": "Cahors", "lat": 44.4475, "lon": 1.442, "type": "Préfecture", "level": "departmental" },
    { "id": 48, "department": "47 Lot et Garonne", "city": "Agen", "lat": 44.2045, "lon": 0.6133, "type": "Préfecture", "level": "departmental" },
    { "id": 49, "department": "48 Lozère", "city": "Mende", "lat": 44.5167, "lon": 3.5, "type": "Préfecture", "level": "departmental" },
    { "id": 50, "department": "49 Maine et Loire", "city": "Angers", "lat": 47.4784, "lon": -0.5632, "type": "Préfecture", "level": "departmental" },
    { "id": 51, "department": "50 Manche", "city": "Saint-Lô", "lat": 49.1171, "lon": -1.087, "type": "Préfecture", "level": "departmental" },
    { "id": 52, "department": "51 Marne", "city": "Châlons-en-Champagne", "lat": 48.9567, "lon": 4.3725, "type": "Préfecture", "level": "departmental" },
    { "id": 53, "department": "52 Haute Marne", "city": "Chaumont", "lat": 48.107, "lon": 5.136, "type": "Préfecture", "level": "departmental" },
    { "id": 54, "department": "53 Mayenne", "city": "Laval", "lat": 48.0706, "lon": -0.7725, "type": "Préfecture", "level": "departmental" },
    { "id": 55, "department": "54 Meurthe et Moselle", "city": "Nancy", "lat": 48.6936, "lon": 6.1843, "type": "Préfecture", "level": "departmental" },
    { "id": 56, "department": "55 Meuse", "city": "Bar-le-Duc", "lat": 48.7714, "lon": 5.1633, "type": "Préfecture", "level": "departmental" },
    { "id": 57, "department": "56 Morbihan", "city": "Vannes", "lat": 47.6586, "lon": -2.7603, "type": "Préfecture", "level": "departmental" },
    { "id": 58, "department": "57 Moselle", "city": "Metz", "lat": 49.1193, "lon": 6.175, "type": "Préfecture", "level": "departmental" },
    { "id": 59, "department": "58 Nièvre", "city": "Nevers", "lat": 46.992, "lon": 3.161, "type": "Préfecture", "level": "departmental" },
    { "id": 60, "department": "59 Nord", "city": "Lille", "lat": 50.6292, "lon": 3.0573, "type": "Préfecture", "level": "departmental" },
    { "id": 61, "department": "60 Oise", "city": "Beauvais", "lat": 49.4316, "lon": 2.0945, "type": "Préfecture", "level": "departmental" },
    { "id": 62, "department": "61 Orne", "city": "Alençon", "lat": 48.431, "lon": 0.091, "type": "Préfecture", "level": "departmental" },
    { "id": 63, "department": "62 Pas de Calais", "city": "Arras", "lat": 50.2926, "lon": 2.7825, "type": "Préfecture", "level": "departmental" },
    { "id": 64, "department": "63 Puy de Dôme", "city": "Clermont-Ferrand", "lat": 45.7772, "lon": 3.087, "type": "Préfecture", "level": "departmental" },
    { "id": 65, "department": "64 Pyrénées Atlantiques", "city": "Pau", "lat": 43.3006, "lon": -0.3662, "type": "Préfecture", "level": "departmental" },
    { "id": 66, "department": "65 Hautes Pyrénées", "city": "Tarbes", "lat": 43.2323, "lon": 0.0768, "type": "Préfecture", "level": "departmental" },
    { "id": 67, "department": "66 Pyrénées Orientales", "city": "Perpignan", "lat": 42.6888, "lon": 2.8948, "type": "Préfecture", "level": "departmental" },
    { "id": 68, "department": "67 Bas Rhin", "city": "Strasbourg", "lat": 48.5839, "lon": 7.7455, "type": "Préfecture", "level": "departmental" },
    { "id": 69, "department": "68 Haut Rhin", "city": "Colmar", "lat": 48.0792, "lon": 7.3592, "type": "Préfecture", "level": "departmental" },
    { "id": 70, "department": "69 Rhône", "city": "Lyon", "lat": 45.764, "lon": 4.8357, "type": "Préfecture", "level": "departmental" },
    { "id": 71, "department": "70 Haute Saône", "city": "Vesoul", "lat": 47.625, "lon": 6.155, "type": "Préfecture", "level": "departmental" },
    { "id": 72, "department": "71 Saône et Loire", "city": "Mâcon", "lat": 46.306, "lon": 4.832, "type": "Préfecture", "level": "departmental" },
    { "id": 73, "department": "72 Sarthe", "city": "Le Mans", "lat": 48.0077, "lon": 0.1983, "type": "Préfecture", "level": "departmental" },
    { "id": 74, "department": "73 Savoie", "city": "Chambéry", "lat": 45.5645, "lon": 5.9178, "type": "Préfecture", "level": "departmental" },
    { "id": 75, "department": "74 Haute Savoie", "city": "Annecy", "lat": 45.8992, "lon": 6.1294, "type": "Préfecture", "level": "departmental" },
    { "id": 76, "department": "75 Paris", "city": "Paris", "lat": 48.8566, "lon": 2.3522, "type": "Préfecture", "level": "departmental" },
    { "id": 77, "department": "76 Seine Maritime", "city": "Rouen", "lat": 49.4432, "lon": 1.0994, "type": "Préfecture", "level": "departmental" },
    { "id": 78, "department": "77 Seine et Marne", "city": "Melun", "lat": 48.539, "lon": 2.654, "type": "Préfecture", "level": "departmental" },
    { "id": 79, "department": "78 Yvelines", "city": "Versailles", "lat": 48.8014, "lon": 2.1301, "type": "Préfecture", "level": "departmental" },
    { "id": 80, "department": "79 Deux Sèvres", "city": "Niort", "lat": 46.3243, "lon": -0.4632, "type": "Préfecture", "level": "departmental" },
    { "id": 81, "department": "80 Somme", "city": "Amiens", "lat": 49.8941, "lon": 2.2958, "type": "Préfecture", "level": "departmental" },
    { "id": 82, "department": "81 Tarn", "city": "Albi", "lat": 43.9298, "lon": 2.1432, "type": "Préfecture", "level": "departmental" },
    { "id": 83, "department": "82 Tarn et Garonne", "city": "Montauban", "lat": 44.0175, "lon": 1.355, "type": "Préfecture", "level": "departmental" },
    { "id": 84, "department": "83 Var", "city": "Toulon", "lat": 43.1242, "lon": 5.928, "type": "Préfecture", "level": "departmental" },
    { "id": 85, "department": "84 Vaucluse", "city": "Avignon", "lat": 43.9493, "lon": 4.806, "type": "Préfecture", "level": "departmental" },
    { "id": 86, "department": "85 Vendée", "city": "La Roche-sur-Yon", "lat": 46.6713, "lon": -1.426, "type": "Préfecture", "level": "departmental" },
    { "id": 87, "department": "86 Vienne", "city": "Poitiers", "lat": 46.5869, "lon": 0.3664, "type": "Préfecture", "level": "departmental" },
    { "id": 88, "department": "87 Haute Vienne", "city": "Limoges", "lat": 45.8336, "lon": 1.2611, "type": "Préfecture", "level": "departmental" },
    { "id": 89, "department": "88 Vosges", "city": "Épinal", "lat": 48.175, "lon": 6.447, "type": "Préfecture", "level": "departmental" },
    { "id": 90, "department": "89 Yonne", "city": "Auxerre", "lat": 47.7885, "lon": 3.568, "type": "Préfecture", "level": "departmental" },
    { "id": 91, "department": "90 Territoire de Belfort", "city": "Belfort", "lat": 47.6406, "lon": 6.8632, "type": "Préfecture", "level": "departmental" },
    { "id": 92, "department": "91 Essonne", "city": "Évry", "lat": 48.6299, "lon": 2.4278, "type": "Préfecture", "level": "departmental" },
    { "id": 93, "department": "92 Hauts de Seine", "city": "Nanterre", "lat": 48.892, "lon": 2.208, "type": "Préfecture", "level": "departmental" },
    { "id": 94, "department": "93 Seine Saint Denis", "city": "Bobigny", "lat": 48.909, "lon": 2.445, "type": "Préfecture", "level": "departmental" },
    { "id": 95, "department": "94 Val de Marne", "city": "Créteil", "lat": 48.796, "lon": 2.45, "type": "Préfecture", "level": "departmental" },
    { "id": 96, "department": "95 Val d'Oise", "city": "Cergy", "lat": 49.035, "lon": 2.071, "type": "Préfecture", "level": "departmental" },
    { "id": 97, "department": "971 Guadeloupe", "city": "Basse-Terre", "lat": 16.002, "lon": -61.705, "type": "Préfecture", "level": "departmental" },
    { "id": 98, "department": "972 Martinique", "city": "Fort-de-France", "lat": 14.608, "lon": -61.073, "type": "Préfecture", "level": "departmental" },
    { "id": 99, "department": "973 Guyane", "city": "Cayenne", "lat": 4.935, "lon": -52.333, "type": "Préfecture", "level": "departmental" },
    { "id": 100, "department": "974 La réunion", "city": "Saint-Denis", "lat": -20.882, "lon": 55.45, "type": "Préfecture", "level": "departmental" },
    { "id": 101, "department": "975 Saint Pierre et Miquelon", "city": "Saint-Pierre", "lat": 46.786, "lon": -56.177, "type": "Préfecture", "level": "departmental" },
    { "id": 102, "department": "976 Mayotte", "city": "Mamoudzou", "lat": -12.78, "lon": 45.22, "type": "Préfecture", "level": "departmental" },
    { "id": 103, "department": "977 Saint Barthelemy", "city": "Gustavia", "lat": 17.895, "lon": -62.84, "type": "Préfecture", "level": "departmental" },
    { "id": 104, "department": "978 Saint Martin", "city": "Marigot", "lat": 18.067, "lon": -63.085, "type": "Préfecture", "level": "departmental" }
]