{
    "chronology": [
    {
      "id": "1",
      "title": "Loi du Plomb",
      "subtitle": "Du 8 JUILLET",
      "description": "Lancement de la loi DUMPLOMB.",
      "start_date": "2025-07-08T00:00:00Z",
      "end_date": "2025-07-08T23:59:59Z",
      "lat": 48.8566,
      "lon": 2.3522,
      "city": "Paris"
    },
    {
      "id": "2",
      "title": "Stratégie de boycottage",
      "subtitle": "Du 14 août",
      "description": "Nous développons et mettons en œuvre la stratégie de boycottage et de financement de la caisse de manifestation. Des actions de sensibilisation seront menées pour mobiliser un maximum de citoyens.",
      "start_date": "2025-08-14T00:00:00Z",
      "end_date": "2025-08-14T23:59:59Z",
      "lat": 45.764,
      "lon": 4.8357,
      "city": "Lyon"
    },
    {
      "id": "3",
      "title": "Journée de la Démocratie",
      "subtitle": "Le 30 Aout",
      "description": "Journée de la Démocratie Assemblée Générale. Type : AG.",
      "start_date": "2025-08-30T00:00:00Z",
      "end_date": "2025-08-30T23:59:59Z",
      "lat": 43.6045,
      "lon": 1.4442,
      "city": "Toulouse"
    },
    {
      "id": "4",
      "title": "Socle démocratique : MAIRIE",
      "subtitle": "Le 8 septembre",
      "description": "Bye, bail > BAYROUX. L'objectif est d'établir un socle démocratique au niveau local.",
      "start_date": "2025-09-08T00:00:00Z",
      "end_date": "2025-09-08T23:59:59Z",
      "lat": 48.8566,
      "lon": 2.3522,
      "city": "Paris"
    },
    {
      "id": "5",
      "title": "Journée de Manifestation",
      "subtitle": "Le 10 septembre",
      "description": "Nous vous invitons à vous rassembler, à distribuer de l'argent de la caisse de manifestation et à échanger autour d'un restaurant sur les revendications de justice sociale, de destitution et du RIC. C'est un moment pour se réapproprier l'espace public de manière constructive.",
      "start_date": "2025-09-10T00:00:00Z",
      "end_date": "2025-09-10T23:59:59Z",
      "lat": 48.8679,
      "lon": 2.3582,
      "city": "Paris"
    },
    {
      "id": "6",
      "title": "Grève Générale",
      "subtitle": "Le 18 septembre",
      "description": "Nous vous invitons à vous rassembler, à distribuer de l'argent de la caisse de manifestation et à échanger autour d'un restaurant sur les revendications de justice sociale, de destitution et du RIC. C'est un moment pour se réapproprier l'espace public de manière constructive.",
      "start_date": "2025-09-18T00:00:00Z",
      "end_date": "2025-09-18T23:59:59Z",
      "lat": 48.8703,
      "lon": 2.3168,
      "city": "Paris"
    },
    {
      "id": "7",
      "title": "Assemblée Générale Inter-syndicale",
      "subtitle": "Le 11 septembre",
      "description": "Première AG post-manifestation. Bilan de la mobilisation et planification de la suite. Thèmes abordés : Justice Sociale et RIC.",
      "start_date": "2025-09-11T14:00:00Z",
      "end_date": "2025-09-11T18:00:00Z",
      "lat": 48.1173,
      "lon": -1.6778,
      "city": "Rennes",
      "type": "AG",
      "source_id": "src-11sep-ag-rennes"
    },
    {
      "id": "8",
      "title": "Préparation de la Grève du 18",
      "subtitle": "Le 14 septembre",
      "description": "Assemblée Générale à Paris pour organiser les actions de la grève générale. Focus sur les points de blocage et la coordination.",
      "start_date": "2025-09-14T10:00:00Z",
      "end_date": "2025-09-14T16:00:00Z",
      "lat": 48.868,
      "lon": 2.348,
      "city": "Paris",
      "type": "AG",
      "source_id": "src-14sep-ag-paris"
    },
    {
      "id": "9",
      "title": "Dossier Photos : Caen et les Rond-points",
      "subtitle": "Le 16 septembre",
      "description": "Compilation de photos et vidéos pour un dossier de preuves visuelles des actions du 10 septembre à Caen.",
      "start_date": "2025-09-16T09:00:00Z",
      "end_date": "2025-09-16T17:00:00Z",
      "lat": 49.1833,
      "lon": -0.3705,
      "city": "Caen",
      "type": "Dossier",
      "source_id": "src-16sep-dossier-photos"
    }
  ]
}